header: 
  seq: 102739
  stamp: 
    secs: 1529690074
    nsecs: 412545781
  frame_id: ''
frame_number: 268887
markers: 
  - 
    marker_name: "front"
    subject_name: "crazyflie"
    segment_name: "main"
    translation: 
      x: -142.056568192
      y: -134.282512776
      z: 20.1934563398
    occluded: False
  - 
    marker_name: "top"
    subject_name: "crazyflie"
    segment_name: "main"
    translation: 
      x: -164.798155554
      y: -108.117370152
      z: 7.69772637754
    occluded: False
  - 
    marker_name: "bot"
    subject_name: "crazyflie"
    segment_name: "main"
    translation: 
      x: -160.850437359
      y: -61.3726122113
      z: 8.44634796511
    occluded: False
  - 
    marker_name: "left"
    subject_name: "crazyflie"
    segment_name: "main"
    translation: 
      x: -121.494297963
      y: -64.1870552553
      z: 6.86476731455
    occluded: False
---
header: 
  seq: 102740
  stamp: 
    secs: 1529690074
    nsecs: 420967349
  frame_id: ''
frame_number: 268888
markers: 
  - 
    marker_name: "front"
    subject_name: "crazyflie"
    segment_name: "main"
    translation: 
      x: -142.082826544
      y: -134.297273876
      z: 20.1542806672
    occluded: False
  - 
    marker_name: "top"
    subject_name: "crazyflie"
    segment_name: "main"
    translation: 
      x: -164.712410565
      y: -108.161925276
      z: 7.69858689678
    occluded: False
  - 
    marker_name: "bot"
    subject_name: "crazyflie"
    segment_name: "main"
    translation: 
      x: -160.904243173
      y: -61.3869282689
      z: 8.43426222126
    occluded: False
  - 
    marker_name: "left"
    subject_name: "crazyflie"
    segment_name: "main"
    translation: 
      x: -121.553791548
      y: -64.2006134551
      z: 6.76670983586
    occluded: False
---
header: 
  seq: 102741
  stamp: 
    secs: 1529690074
    nsecs: 429304270
  frame_id: ''
frame_number: 268889
markers: 
  - 
    marker_name: "front"
    subject_name: "crazyflie"
    segment_name: "main"
    translation: 
      x: -142.155769304
      y: -134.328605472
      z: 20.1293061558
    occluded: False
  - 
    marker_name: "top"
    subject_name: "crazyflie"
    segment_name: "main"
    translation: 
      x: -164.733896631
      y: -108.110173469
      z: 7.70566711642
    occluded: False
  - 
    marker_name: "bot"
    subject_name: "crazyflie"
    segment_name: "main"
    translation: 
      x: -160.868025139
      y: -61.3792615559
      z: 8.42502329827
    occluded: False
  - 
    marker_name: "left"
    subject_name: "crazyflie"
    segment_name: "main"
    translation: 
      x: -121.658026433
      y: -64.2965468023
      z: 6.84673023267
    occluded: False
---
header: 
  seq: 102742
  stamp: 
    secs: 1529690074
    nsecs: 437633283
  frame_id: ''
frame_number: 268890
markers: 
  - 
    marker_name: "front"
    subject_name: "crazyflie"
    segment_name: "main"
    translation: 
      x: -142.241652726
      y: -134.322482176
      z: 20.1177134213
    occluded: False
  - 
    marker_name: "top"
    subject_name: "crazyflie"
    segment_name: "main"
    translation: 
      x: -164.793262746
      y: -108.102859392
      z: 7.72077644588
    occluded: False
  - 
    marker_name: "bot"
    subject_name: "crazyflie"
    segment_name: "main"
    translation: 
      x: -160.85959913
      y: -61.3810188403
      z: 8.46275758443
    occluded: False
  - 
    marker_name: "left"
    subject_name: "crazyflie"
    segment_name: "main"
    translation: 
      x: -121.553239792
      y: -64.2621124398
      z: 6.91763735701
    occluded: False
---
header: 
  seq: 102743
  stamp: 
    secs: 1529690074
    nsecs: 445995872
  frame_id: ''
frame_number: 268891
markers: 
  - 
    marker_name: "front"
    subject_name: "crazyflie"
    segment_name: "main"
    translation: 
      x: -142.217494229
      y: -134.333465063
      z: 20.1293868636
    occluded: False
  - 
    marker_name: "top"
    subject_name: "crazyflie"
    segment_name: "main"
    translation: 
      x: -164.821482888
      y: -108.064377733
      z: 7.74742231258
    occluded: False
  - 
    marker_name: "bot"
    subject_name: "crazyflie"
    segment_name: "main"
    translation: 
      x: -160.910417761
      y: -61.3714015235
      z: 8.48546317109
    occluded: False
  - 
    marker_name: "left"
    subject_name: "crazyflie"
    segment_name: "main"
    translation: 
      x: -121.609369204
      y: -64.2400064388
      z: 6.93187449843
    occluded: False
---
header: 
  seq: 102744
  stamp: 
    secs: 1529690074
    nsecs: 454301960
  frame_id: ''
frame_number: 268892
markers: 
  - 
    marker_name: "front"
    subject_name: "crazyflie"
    segment_name: "main"
    translation: 
      x: -142.208275279
      y: -134.34481812
      z: 20.1917111267
    occluded: False
  - 
    marker_name: "top"
    subject_name: "crazyflie"
    segment_name: "main"
    translation: 
      x: -164.859573389
      y: -108.069845511
      z: 7.72535117742
    occluded: False
  - 
    marker_name: "bot"
    subject_name: "crazyflie"
    segment_name: "main"
    translation: 
      x: -160.857243077
      y: -61.3554264653
      z: 8.49197395055
    occluded: False
  - 
    marker_name: "left"
    subject_name: "crazyflie"
    segment_name: "main"
    translation: 
      x: -121.543069261
      y: -64.2241976518
      z: 6.94750613803
    occluded: False
---
header: 
  seq: 102745
  stamp: 
    secs: 1529690074
    nsecs: 462765191
  frame_id: ''
frame_number: 268893
markers: 
  - 
    marker_name: "front"
    subject_name: "crazyflie"
    segment_name: "main"
    translation: 
      x: -142.094584082
      y: -134.279646477
      z: 20.1867907703
    occluded: False
  - 
    marker_name: "top"
    subject_name: "crazyflie"
    segment_name: "main"
    translation: 
      x: -164.880181076
      y: -108.032534326
      z: 7.68996732643
    occluded: False
  - 
    marker_name: "bot"
    subject_name: "crazyflie"
    segment_name: "main"
    translation: 
      x: -160.864576281
      y: -61.3799819689
      z: 8.46632893176
    occluded: False
  - 
    marker_name: "left"
    subject_name: "crazyflie"
    segment_name: "main"
    translation: 
      x: -121.498988233
      y: -64.1900201921
      z: 6.88094674318
    occluded: False
---
header: 
  seq: 102746
  stamp: 
    secs: 1529690074
    nsecs: 470953045
  frame_id: ''
frame_number: 268894
markers: 
  - 
    marker_name: "front"
    subject_name: "crazyflie"
    segment_name: "main"
    translation: 
      x: -142.09548655
      y: -134.287272847
      z: 20.2021124976
    occluded: False
  - 
    marker_name: "top"
    subject_name: "crazyflie"
    segment_name: "main"
    translation: 
      x: -164.862097741
      y: -108.036957509
      z: 7.69457244194
    occluded: False
  - 
    marker_name: "bot"
    subject_name: "crazyflie"
    segment_name: "main"
    translation: 
      x: -160.879703203
      y: -61.3704942257
      z: 8.48622301587
    occluded: False
  - 
    marker_name: "left"
    subject_name: "crazyflie"
    segment_name: "main"
    translation: 
      x: -121.561887641
      y: -64.2092535271
      z: 6.90605020227
    occluded: False
---
header: 
  seq: 102747
  stamp: 
    secs: 1529690074
    nsecs: 479296635
  frame_id: ''
frame_number: 268895
markers: 
  - 
    marker_name: "front"
    subject_name: "crazyflie"
    segment_name: "main"
    translation: 
      x: -142.138261414
      y: -134.312800214
      z: 20.2208352889
    occluded: False
  - 
    marker_name: "top"
    subject_name: "crazyflie"
    segment_name: "main"
    translation: 
      x: -164.785390768
      y: -108.091823239
      z: 7.69790250263
    occluded: False
  - 
    marker_name: "bot"
    subject_name: "crazyflie"
    segment_name: "main"
    translation: 
      x: -160.866273663
      y: -61.3920359112
      z: 8.45326345079
    occluded: False
  - 
    marker_name: "left"
    subject_name: "crazyflie"
    segment_name: "main"
    translation: 
      x: -121.471884802
      y: -64.2180213279
      z: 6.88345820903
    occluded: False
---
header: 
  seq: 102748
  stamp: 
    secs: 1529690074
    nsecs: 487651212
  frame_id: ''
frame_number: 268896
markers: 
  - 
    marker_name: "front"
    subject_name: "crazyflie"
    segment_name: "main"
    translation: 
      x: -142.152620616
      y: -134.316408758
      z: 20.1621678806
    occluded: False
  - 
    marker_name: "top"
    subject_name: "crazyflie"
    segment_name: "main"
    translation: 
      x: -164.732377077
      y: -108.122115499
      z: 7.68115625802
    occluded: False
  - 
    marker_name: "bot"
    subject_name: "crazyflie"
    segment_name: "main"
    translation: 
      x: -160.865521028
      y: -61.3729178093
      z: 8.45915707652
    occluded: False
  - 
    marker_name: "left"
    subject_name: "crazyflie"
    segment_name: "main"
    translation: 
      x: -121.483108056
      y: -64.1907788105
      z: 6.85611865038
    occluded: False
---
header: 
  seq: 102749
  stamp: 
    secs: 1529690074
    nsecs: 496003628
  frame_id: ''
frame_number: 268897
markers: 
  - 
    marker_name: "front"
    subject_name: "crazyflie"
    segment_name: "main"
    translation: 
      x: -142.177495921
      y: -134.344881484
      z: 20.1114986967
    occluded: False
  - 
    marker_name: "top"
    subject_name: "crazyflie"
    segment_name: "main"
    translation: 
      x: -164.785536198
      y: -108.125320288
      z: 7.6852709366
    occluded: False
  - 
    marker_name: "bot"
    subject_name: "crazyflie"
    segment_name: "main"
    translation: 
      x: -160.839712737
      y: -61.3819979593
      z: 8.47124387669
    occluded: False
  - 
    marker_name: "left"
    subject_name: "crazyflie"
    segment_name: "main"
    translation: 
      x: -121.524462189
      y: -64.2518865687
      z: 6.85637099907
    occluded: False
---
header: 
  seq: 102750
  stamp: 
    secs: 1529690074
    nsecs: 504297056
  frame_id: ''
frame_number: 268898
markers: 
  - 
    marker_name: "front"
    subject_name: "crazyflie"
    segment_name: "main"
    translation: 
      x: -142.164725587
      y: -134.339744915
      z: 20.0982653764
    occluded: False
  - 
    marker_name: "top"
    subject_name: "crazyflie"
    segment_name: "main"
    translation: 
      x: -164.758747682
      y: -108.108968112
      z: 7.70804447245
    occluded: False
  - 
    marker_name: "bot"
    subject_name: "crazyflie"
    segment_name: "main"
    translation: 
      x: -160.826599524
      y: -61.3711066062
      z: 8.45171619429
    occluded: False
  - 
    marker_name: "left"
    subject_name: "crazyflie"
    segment_name: "main"
    translation: 
      x: -121.507084789
      y: -64.2310708731
      z: 6.83608899136
    occluded: False
---
header: 
  seq: 102751
  stamp: 
    secs: 1529690074
    nsecs: 512717626
  frame_id: ''
frame_number: 268899
markers: 
  - 
    marker_name: "front"
    subject_name: "crazyflie"
    segment_name: "main"
    translation: 
      x: -142.108029448
      y: -134.329586999
      z: 20.1184654471
    occluded: False
  - 
    marker_name: "top"
    subject_name: "crazyflie"
    segment_name: "main"
    translation: 
      x: -164.803655993
      y: -108.097411675
      z: 7.70124178402
    occluded: False
  - 
    marker_name: "bot"
    subject_name: "crazyflie"
    segment_name: "main"
    translation: 
      x: -160.856514352
      y: -61.383771879
      z: 8.45560411895
    occluded: False
  - 
    marker_name: "left"
    subject_name: "crazyflie"
    segment_name: "main"
    translation: 
      x: -121.4514738
      y: -64.2310284758
      z: 6.86312327633
    occluded: False
---
header: 
  seq: 102752
  stamp: 
    secs: 1529690074
    nsecs: 521238414
  frame_id: ''
frame_number: 268900
markers: 
  - 
    marker_name: "front"
    subject_name: "crazyflie"
    segment_name: "main"
    translation: 
      x: -142.051438164
      y: -134.305420474
      z: 20.1383712513
    occluded: False
  - 
    marker_name: "top"
    subject_name: "crazyflie"
    segment_name: "main"
    translation: 
      x: -164.764085518
      y: -108.096498136
      z: 7.75119300802
    occluded: False
  - 
    marker_name: "bot"
    subject_name: "crazyflie"
    segment_name: "main"
    translation: 
      x: -160.817552956
      y: -61.3633005222
      z: 8.45881280891
    occluded: False
  - 
    marker_name: "left"
    subject_name: "crazyflie"
    segment_name: "main"
    translation: 
      x: -121.515133567
      y: -64.2417862781
      z: 6.91083840127
    occluded: False
---
header: 
  seq: 102753
  stamp: 
    secs: 1529690074
    nsecs: 529363561
  frame_id: ''
frame_number: 268901
markers: 
  - 
    marker_name: "front"
    subject_name: "crazyflie"
    segment_name: "main"
    translation: 
      x: -142.049193336
      y: -134.27446298
      z: 20.1846537341
    occluded: False
  - 
    marker_name: "top"
    subject_name: "crazyflie"
    segment_name: "main"
    translation: 
      x: -164.799771203
      y: -108.084485051
      z: 7.75436394486
    occluded: False
  - 
    marker_name: "bot"
    subject_name: "crazyflie"
    segment_name: "main"
    translation: 
      x: -160.870685999
      y: -61.3728316242
      z: 8.49827899899
    occluded: False
  - 
    marker_name: "left"
    subject_name: "crazyflie"
    segment_name: "main"
    translation: 
      x: -121.486872864
      y: -64.1895347201
      z: 6.90004381061
    occluded: False
---
header: 
  seq: 102754
  stamp: 
    secs: 1529690074
    nsecs: 537604527
  frame_id: ''
frame_number: 268902
markers: 
  - 
    marker_name: "front"
    subject_name: "crazyflie"
    segment_name: "main"
    translation: 
      x: -142.143583643
      y: -134.325619813
      z: 20.2318784644
    occluded: False
  - 
    marker_name: "top"
    subject_name: "crazyflie"
    segment_name: "main"
    translation: 
      x: -164.780800238
      y: -108.108692233
      z: 7.77429843255
    occluded: False
  - 
    marker_name: "bot"
    subject_name: "crazyflie"
    segment_name: "main"
    translation: 
      x: -160.812314175
      y: -61.3767562329
      z: 8.52078864775
    occluded: False
  - 
    marker_name: "left"
    subject_name: "crazyflie"
    segment_name: "main"
    translation: 
      x: -121.682943524
      y: -64.2249268803
      z: 6.90640146481
    occluded: False
---
header: 
  seq: 102755
  stamp: 
    secs: 1529690074
    nsecs: 545975689
  frame_id: ''
frame_number: 268903
markers: 
  - 
    marker_name: "front"
    subject_name: "crazyflie"
    segment_name: "main"
    translation: 
      x: -142.103081771
      y: -134.304812225
      z: 20.1768768594
    occluded: False
  - 
    marker_name: "top"
    subject_name: "crazyflie"
    segment_name: "main"
    translation: 
      x: -164.795477032
      y: -108.090380607
      z: 7.75448947369
    occluded: False
  - 
    marker_name: "bot"
    subject_name: "crazyflie"
    segment_name: "main"
    translation: 
      x: -160.844399449
      y: -61.3666132011
      z: 8.49788056572
    occluded: False
  - 
    marker_name: "left"
    subject_name: "crazyflie"
    segment_name: "main"
    translation: 
      x: -121.538883334
      y: -64.2215896142
      z: 6.91940708956
    occluded: False
---
header: 
  seq: 102756
  stamp: 
    secs: 1529690074
    nsecs: 554300415
  frame_id: ''
frame_number: 268904
markers: 
  - 
    marker_name: "front"
    subject_name: "crazyflie"
    segment_name: "main"
    translation: 
      x: -142.195874487
      y: -134.35380509
      z: 20.1472117087
    occluded: False
  - 
    marker_name: "top"
    subject_name: "crazyflie"
    segment_name: "main"
    translation: 
      x: -164.776710721
      y: -108.115289882
      z: 7.68299422304
    occluded: False
  - 
    marker_name: "bot"
    subject_name: "crazyflie"
    segment_name: "main"
    translation: 
      x: -160.886313902
      y: -61.3615951186
      z: 8.47790253112
    occluded: False
  - 
    marker_name: "left"
    subject_name: "crazyflie"
    segment_name: "main"
    translation: 
      x: -121.478112438
      y: -64.2429375338
      z: 6.87821695431
    occluded: False
---
header: 
  seq: 102757
  stamp: 
    secs: 1529690074
    nsecs: 562616999
  frame_id: ''
frame_number: 268905
markers: 
  - 
    marker_name: "front"
    subject_name: "crazyflie"
    segment_name: "main"
    translation: 
      x: -142.180682002
      y: -134.338283635
      z: 20.0856865653
    occluded: False
  - 
    marker_name: "top"
    subject_name: "crazyflie"
    segment_name: "main"
    translation: 
      x: -164.819851413
      y: -108.055357981
      z: 7.65803564388
    occluded: False
  - 
    marker_name: "bot"
    subject_name: "crazyflie"
    segment_name: "main"
    translation: 
      x: -160.832564532
      y: -61.3590455535
      z: 8.43961275606
    occluded: False
  - 
    marker_name: "left"
    subject_name: "crazyflie"
    segment_name: "main"
    translation: 
      x: -121.475387283
      y: -64.2111592311
      z: 6.81373936509
    occluded: False
---
header: 
  seq: 102758
  stamp: 
    secs: 1529690074
    nsecs: 571146827
  frame_id: ''
frame_number: 268906
markers: 
  - 
    marker_name: "front"
    subject_name: "crazyflie"
    segment_name: "main"
    translation: 
      x: -142.21670525
      y: -134.344518019
      z: 20.1212874028
    occluded: False
  - 
    marker_name: "top"
    subject_name: "crazyflie"
    segment_name: "main"
    translation: 
      x: -164.854977234
      y: -108.077502403
      z: 7.65371050585
    occluded: False
  - 
    marker_name: "bot"
    subject_name: "crazyflie"
    segment_name: "main"
    translation: 
      x: -160.831720535
      y: -61.3714906716
      z: 8.46762985738
    occluded: False
  - 
    marker_name: "left"
    subject_name: "crazyflie"
    segment_name: "main"
    translation: 
      x: -121.472597459
      y: -64.1937360582
      z: 6.85315895384
    occluded: False
---
header: 
  seq: 102759
  stamp: 
    secs: 1529690074
    nsecs: 579440310
  frame_id: ''
frame_number: 268907
markers: 
  - 
    marker_name: "front"
    subject_name: "crazyflie"
    segment_name: "main"
    translation: 
      x: -142.131328244
      y: -134.307773828
      z: 20.1394591092
    occluded: False
  - 
    marker_name: "top"
    subject_name: "crazyflie"
    segment_name: "main"
    translation: 
      x: -164.830810316
      y: -108.06068414
      z: 7.67594778876
    occluded: False
  - 
    marker_name: "bot"
    subject_name: "crazyflie"
    segment_name: "main"
    translation: 
      x: -160.86237452
      y: -61.3603495419
      z: 8.44619725698
    occluded: False
  - 
    marker_name: "left"
    subject_name: "crazyflie"
    segment_name: "main"
    translation: 
      x: -121.508671993
      y: -64.2666708539
      z: 6.88644826548
    occluded: False
---
header: 
  seq: 102760
  stamp: 
    secs: 1529690074
    nsecs: 587519424
  frame_id: ''
frame_number: 268908
markers: 
  - 
    marker_name: "front"
    subject_name: "crazyflie"
    segment_name: "main"
    translation: 
      x: -142.073850762
      y: -134.295185261
      z: 20.197435213
    occluded: False
  - 
    marker_name: "top"
    subject_name: "crazyflie"
    segment_name: "main"
    translation: 
      x: -164.87151896
      y: -108.055587761
      z: 7.70370807683
    occluded: False
  - 
    marker_name: "bot"
    subject_name: "crazyflie"
    segment_name: "main"
    translation: 
      x: -160.863339265
      y: -61.3636446535
      z: 8.47933652341
    occluded: False
  - 
    marker_name: "left"
    subject_name: "crazyflie"
    segment_name: "main"
    translation: 
      x: -121.566322692
      y: -64.2431261308
      z: 6.92529788279
    occluded: False
---
header: 
  seq: 102761
  stamp: 
    secs: 1529690074
    nsecs: 595968582
  frame_id: ''
frame_number: 268909
markers: 
  - 
    marker_name: "front"
    subject_name: "crazyflie"
    segment_name: "main"
    translation: 
      x: -142.08041759
      y: -134.26327022
      z: 20.1885144602
    occluded: False
  - 
    marker_name: "top"
    subject_name: "crazyflie"
    segment_name: "main"
    translation: 
      x: -164.845930638
      y: -108.063585572
      z: 7.73083143671
    occluded: False
  - 
    marker_name: "bot"
    subject_name: "crazyflie"
    segment_name: "main"
    translation: 
      x: -160.846845905
      y: -61.3523460884
      z: 8.47671882362
    occluded: False
  - 
    marker_name: "left"
    subject_name: "crazyflie"
    segment_name: "main"
    translation: 
      x: -121.529482437
      y: -64.1966925722
      z: 6.91983061335
    occluded: False
---
header: 
  seq: 102762
  stamp: 
    secs: 1529690074
    nsecs: 604306343
  frame_id: ''
frame_number: 268910
markers: 
  - 
    marker_name: "front"
    subject_name: "crazyflie"
    segment_name: "main"
    translation: 
      x: -142.096154499
      y: -134.284073665
      z: 20.1787882252
    occluded: False
  - 
    marker_name: "top"
    subject_name: "crazyflie"
    segment_name: "main"
    translation: 
      x: -164.816908554
      y: -108.089350494
      z: 7.73287539408
    occluded: False
  - 
    marker_name: "bot"
    subject_name: "crazyflie"
    segment_name: "main"
    translation: 
      x: -160.82156131
      y: -61.3483389606
      z: 8.53762918446
    occluded: False
  - 
    marker_name: "left"
    subject_name: "crazyflie"
    segment_name: "main"
    translation: 
      x: -121.571619416
      y: -64.2221425028
      z: 6.94370820956
    occluded: False
---
header: 
  seq: 102763
  stamp: 
    secs: 1529690074
    nsecs: 612648770
  frame_id: ''
frame_number: 268911
markers: 
  - 
    marker_name: "front"
    subject_name: "crazyflie"
    segment_name: "main"
    translation: 
      x: -142.131836411
      y: -134.311312045
      z: 20.140419433
    occluded: False
  - 
    marker_name: "top"
    subject_name: "crazyflie"
    segment_name: "main"
    translation: 
      x: -164.833895978
      y: -108.096280072
      z: 7.73271768214
    occluded: False
  - 
    marker_name: "bot"
    subject_name: "crazyflie"
    segment_name: "main"
    translation: 
      x: -160.87435146
      y: -61.3826859937
      z: 8.48823861818
    occluded: False
  - 
    marker_name: "left"
    subject_name: "crazyflie"
    segment_name: "main"
    translation: 
      x: -121.481238733
      y: -64.2250704185
      z: 6.91456597049
    occluded: False
---
header: 
  seq: 102764
  stamp: 
    secs: 1529690074
    nsecs: 621021793
  frame_id: ''
frame_number: 268912
markers: 
  - 
    marker_name: "front"
    subject_name: "crazyflie"
    segment_name: "main"
    translation: 
      x: -142.234073767
      y: -134.357663533
      z: 20.1495840892
    occluded: False
  - 
    marker_name: "top"
    subject_name: "crazyflie"
    segment_name: "main"
    translation: 
      x: -164.825819994
      y: -108.078036596
      z: 7.70905990897
    occluded: False
  - 
    marker_name: "bot"
    subject_name: "crazyflie"
    segment_name: "main"
    translation: 
      x: -160.880863275
      y: -61.3724858704
      z: 8.48958312968
    occluded: False
  - 
    marker_name: "left"
    subject_name: "crazyflie"
    segment_name: "main"
    translation: 
      x: -121.530862155
      y: -64.2254730686
      z: 6.91537566622
    occluded: False
---
header: 
  seq: 102765
  stamp: 
    secs: 1529690074
    nsecs: 629333569
  frame_id: ''
frame_number: 268913
markers: 
  - 
    marker_name: "front"
    subject_name: "crazyflie"
    segment_name: "main"
    translation: 
      x: -142.149411367
      y: -134.339817391
      z: 20.1360349659
    occluded: False
  - 
    marker_name: "top"
    subject_name: "crazyflie"
    segment_name: "main"
    translation: 
      x: -164.821407494
      y: -108.091658162
      z: 7.69107389617
    occluded: False
  - 
    marker_name: "bot"
    subject_name: "crazyflie"
    segment_name: "main"
    translation: 
      x: -160.845114619
      y: -61.3583752391
      z: 8.4848126721
    occluded: False
  - 
    marker_name: "left"
    subject_name: "crazyflie"
    segment_name: "main"
    translation: 
      x: -121.440165753
      y: -64.1979789927
      z: 6.86948185067
    occluded: False
---
header: 
  seq: 102766
  stamp: 
    secs: 1529690074
    nsecs: 637605891
  frame_id: ''
frame_number: 268914
markers: 
  - 
    marker_name: "front"
    subject_name: "crazyflie"
    segment_name: "main"
    translation: 
      x: -142.113066595
      y: -134.32196851
      z: 20.1373814417
    occluded: False
  - 
    marker_name: "top"
    subject_name: "crazyflie"
    segment_name: "main"
    translation: 
      x: -164.712848166
      y: -108.155056247
      z: 7.68835668868
    occluded: False
  - 
    marker_name: "bot"
    subject_name: "crazyflie"
    segment_name: "main"
    translation: 
      x: -160.885247491
      y: -61.3681728184
      z: 8.4406356424
    occluded: False
  - 
    marker_name: "left"
    subject_name: "crazyflie"
    segment_name: "main"
    translation: 
      x: -121.615411516
      y: -64.2070036836
      z: 6.8340844129
    occluded: False
---
header: 
  seq: 102767
  stamp: 
    secs: 1529690074
    nsecs: 645961753
  frame_id: ''
frame_number: 268915
markers: 
  - 
    marker_name: "front"
    subject_name: "crazyflie"
    segment_name: "main"
    translation: 
      x: -142.092109622
      y: -134.290645527
      z: 20.1509180254
    occluded: False
  - 
    marker_name: "top"
    subject_name: "crazyflie"
    segment_name: "main"
    translation: 
      x: -164.709828306
      y: -108.129760723
      z: 7.67377681421
    occluded: False
  - 
    marker_name: "bot"
    subject_name: "crazyflie"
    segment_name: "main"
    translation: 
      x: -160.832229933
      y: -61.3925392963
      z: 8.44007932784
    occluded: False
  - 
    marker_name: "left"
    subject_name: "crazyflie"
    segment_name: "main"
    translation: 
      x: -121.571052883
      y: -64.2249424323
      z: 6.76936305507
    occluded: False
---
header: 
  seq: 102768
  stamp: 
    secs: 1529690074
    nsecs: 654416354
  frame_id: ''
frame_number: 268916
markers: 
  - 
    marker_name: "front"
    subject_name: "crazyflie"
    segment_name: "main"
    translation: 
      x: -142.066107529
      y: -134.296614995
      z: 20.153799715
    occluded: False
  - 
    marker_name: "top"
    subject_name: "crazyflie"
    segment_name: "main"
    translation: 
      x: -164.631369283
      y: -108.154068806
      z: 7.72607413181
    occluded: False
  - 
    marker_name: "bot"
    subject_name: "crazyflie"
    segment_name: "main"
    translation: 
      x: -160.909334492
      y: -61.3775852667
      z: 8.41704468561
    occluded: False
  - 
    marker_name: "left"
    subject_name: "crazyflie"
    segment_name: "main"
    translation: 
      x: -121.557574482
      y: -64.1970094639
      z: 6.78555477235
    occluded: False
---
header: 
  seq: 102769
  stamp: 
    secs: 1529690074
    nsecs: 662719442
  frame_id: ''
frame_number: 268917
markers: 
  - 
    marker_name: "front"
    subject_name: "crazyflie"
    segment_name: "main"
    translation: 
      x: -142.07461832
      y: -134.308734033
      z: 20.1650983543
    occluded: False
  - 
    marker_name: "top"
    subject_name: "crazyflie"
    segment_name: "main"
    translation: 
      x: -164.68439081
      y: -108.108692102
      z: 7.73153824528
    occluded: False
  - 
    marker_name: "bot"
    subject_name: "crazyflie"
    segment_name: "main"
    translation: 
      x: -160.888768094
      y: -61.378700509
      z: 8.45105271493
    occluded: False
  - 
    marker_name: "left"
    subject_name: "crazyflie"
    segment_name: "main"
    translation: 
      x: -121.622100394
      y: -64.2268931379
      z: 6.82498098181
    occluded: False
---
header: 
  seq: 102770
  stamp: 
    secs: 1529690074
    nsecs: 671019661
  frame_id: ''
frame_number: 268918
markers: 
  - 
    marker_name: "front"
    subject_name: "crazyflie"
    segment_name: "main"
    translation: 
      x: -142.202495329
      y: -134.353585275
      z: 20.1554007709
    occluded: False
  - 
    marker_name: "top"
    subject_name: "crazyflie"
    segment_name: "main"
    translation: 
      x: -164.783477038
      y: -108.105140946
      z: 7.7617973949
    occluded: False
  - 
    marker_name: "bot"
    subject_name: "crazyflie"
    segment_name: "main"
    translation: 
      x: -160.821583413
      y: -61.3553184199
      z: 8.518168775
    occluded: False
  - 
    marker_name: "left"
    subject_name: "crazyflie"
    segment_name: "main"
    translation: 
      x: -121.692274946
      y: -64.2424433375
      z: 6.88920551114
    occluded: False
---
header: 
  seq: 102771
  stamp: 
    secs: 1529690074
    nsecs: 679362523
  frame_id: ''
frame_number: 268919
markers: 
  - 
    marker_name: "front"
    subject_name: "crazyflie"
    segment_name: "main"
    translation: 
      x: -142.229433691
      y: -134.370204167
      z: 20.1784220693
    occluded: False
  - 
    marker_name: "top"
    subject_name: "crazyflie"
    segment_name: "main"
    translation: 
      x: -164.840570463
      y: -108.087645417
      z: 7.73037296665
    occluded: False
  - 
    marker_name: "bot"
    subject_name: "crazyflie"
    segment_name: "main"
    translation: 
      x: -160.874850475
      y: -61.3720336869
      z: 8.51551844485
    occluded: False
  - 
    marker_name: "left"
    subject_name: "crazyflie"
    segment_name: "main"
    translation: 
      x: -121.587183108
      y: -64.2768399044
      z: 6.98184434413
    occluded: False
---
header: 
  seq: 102772
  stamp: 
    secs: 1529690074
    nsecs: 687681189
  frame_id: ''
frame_number: 268920
markers: 
  - 
    marker_name: "front"
    subject_name: "crazyflie"
    segment_name: "main"
    translation: 
      x: -142.157756754
      y: -134.342598497
      z: 20.1327975958
    occluded: False
  - 
    marker_name: "top"
    subject_name: "crazyflie"
    segment_name: "main"
    translation: 
      x: -164.928918623
      y: -107.985690445
      z: 7.72360429561
    occluded: False
  - 
    marker_name: "bot"
    subject_name: "crazyflie"
    segment_name: "main"
    translation: 
      x: -160.862219467
      y: -61.3400460105
      z: 8.50459616551
    occluded: False
  - 
    marker_name: "left"
    subject_name: "crazyflie"
    segment_name: "main"
    translation: 
      x: -121.568166143
      y: -64.2983419623
      z: 7.01590500527
    occluded: False
---
header: 
  seq: 102773
  stamp: 
    secs: 1529690074
    nsecs: 695974430
  frame_id: ''
frame_number: 268921
markers: 
  - 
    marker_name: "front"
    subject_name: "crazyflie"
    segment_name: "main"
    translation: 
      x: -142.109182843
      y: -134.310488253
      z: 20.138359077
    occluded: False
  - 
    marker_name: "top"
    subject_name: "crazyflie"
    segment_name: "main"
    translation: 
      x: -164.891810213
      y: -108.058038519
      z: 7.68018699534
    occluded: False
  - 
    marker_name: "bot"
    subject_name: "crazyflie"
    segment_name: "main"
    translation: 
      x: -160.865434166
      y: -61.3589798216
      z: 8.45655695055
    occluded: False
  - 
    marker_name: "left"
    subject_name: "crazyflie"
    segment_name: "main"
    translation: 
      x: -121.518929306
      y: -64.2171284246
      z: 6.91865801942
    occluded: False
---
header: 
  seq: 102774
  stamp: 
    secs: 1529690074
    nsecs: 704237042
  frame_id: ''
frame_number: 268922
markers: 
  - 
    marker_name: "front"
    subject_name: "crazyflie"
    segment_name: "main"
    translation: 
      x: -142.08047687
      y: -134.31207235
      z: 20.1536854375
    occluded: False
  - 
    marker_name: "top"
    subject_name: "crazyflie"
    segment_name: "main"
    translation: 
      x: -164.888929727
      y: -108.060745319
      z: 7.64380435844
    occluded: False
  - 
    marker_name: "bot"
    subject_name: "crazyflie"
    segment_name: "main"
    translation: 
      x: -160.880343556
      y: -61.3827439664
      z: 8.45085464471
    occluded: False
  - 
    marker_name: "left"
    subject_name: "crazyflie"
    segment_name: "main"
    translation: 
      x: -121.656998753
      y: -64.2219850552
      z: 6.84828418393
    occluded: False
---
header: 
  seq: 102775
  stamp: 
    secs: 1529690074
    nsecs: 712627915
  frame_id: ''
frame_number: 268923
markers: 
  - 
    marker_name: "front"
    subject_name: "crazyflie"
    segment_name: "main"
    translation: 
      x: -142.103316352
      y: -134.280107482
      z: 20.188158049
    occluded: False
  - 
    marker_name: "top"
    subject_name: "crazyflie"
    segment_name: "main"
    translation: 
      x: -164.755032893
      y: -108.116822358
      z: 7.65626572518
    occluded: False
  - 
    marker_name: "bot"
    subject_name: "crazyflie"
    segment_name: "main"
    translation: 
      x: -160.838771401
      y: -61.3825236757
      z: 8.43921096195
    occluded: False
  - 
    marker_name: "left"
    subject_name: "crazyflie"
    segment_name: "main"
    translation: 
      x: -121.493137565
      y: -64.2105667908
      z: 6.82528602444
    occluded: False
---
header: 
  seq: 102776
  stamp: 
    secs: 1529690074
    nsecs: 721072616
  frame_id: ''
frame_number: 268924
markers: 
  - 
    marker_name: "front"
    subject_name: "crazyflie"
    segment_name: "main"
    translation: 
      x: -142.097476891
      y: -134.302294342
      z: 20.1596139747
    occluded: False
  - 
    marker_name: "top"
    subject_name: "crazyflie"
    segment_name: "main"
    translation: 
      x: -164.707510587
      y: -108.138256534
      z: 7.67570544877
    occluded: False
  - 
    marker_name: "bot"
    subject_name: "crazyflie"
    segment_name: "main"
    translation: 
      x: -160.8822522
      y: -61.3643194972
      z: 8.43077996826
    occluded: False
  - 
    marker_name: "left"
    subject_name: "crazyflie"
    segment_name: "main"
    translation: 
      x: -121.465862085
      y: -64.2040950229
      z: 6.84023432418
    occluded: False
---
header: 
  seq: 102777
  stamp: 
    secs: 1529690074
    nsecs: 729275858
  frame_id: ''
frame_number: 268925
markers: 
  - 
    marker_name: "front"
    subject_name: "crazyflie"
    segment_name: "main"
    translation: 
      x: -142.136425653
      y: -134.305735318
      z: 20.1447296668
    occluded: False
  - 
    marker_name: "top"
    subject_name: "crazyflie"
    segment_name: "main"
    translation: 
      x: -164.681426754
      y: -108.128828012
      z: 7.71832085873
    occluded: False
  - 
    marker_name: "bot"
    subject_name: "crazyflie"
    segment_name: "main"
    translation: 
      x: -160.919650531
      y: -61.3840376008
      z: 8.42575652457
    occluded: False
  - 
    marker_name: "left"
    subject_name: "crazyflie"
    segment_name: "main"
    translation: 
      x: -121.607894261
      y: -64.2244221573
      z: 6.82605555134
    occluded: False
---
header: 
  seq: 102778
  stamp: 
    secs: 1529690074
    nsecs: 737607890
  frame_id: ''
frame_number: 268926
markers: 
  - 
    marker_name: "front"
    subject_name: "crazyflie"
    segment_name: "main"
    translation: 
      x: -142.179365635
      y: -134.325255812
      z: 20.1064204335
    occluded: False
  - 
    marker_name: "top"
    subject_name: "crazyflie"
    segment_name: "main"
    translation: 
      x: -164.715403985
      y: -108.117538132
      z: 7.74146087132
    occluded: False
  - 
    marker_name: "bot"
    subject_name: "crazyflie"
    segment_name: "main"
    translation: 
      x: -160.834158375
      y: -61.3620571952
      z: 8.48495425204
    occluded: False
  - 
    marker_name: "left"
    subject_name: "crazyflie"
    segment_name: "main"
    translation: 
      x: -121.471438533
      y: -64.1377205172
      z: 6.85858461877
    occluded: False
---
header: 
  seq: 102779
  stamp: 
    secs: 1529690074
    nsecs: 746021669
  frame_id: ''
frame_number: 268927
markers: 
  - 
    marker_name: "front"
    subject_name: "crazyflie"
    segment_name: "main"
    translation: 
      x: -142.19046861
      y: -134.341561432
      z: 20.1228694578
    occluded: False
  - 
    marker_name: "top"
    subject_name: "crazyflie"
    segment_name: "main"
    translation: 
      x: -164.760006134
      y: -108.080274185
      z: 7.7439439176
    occluded: False
  - 
    marker_name: "bot"
    subject_name: "crazyflie"
    segment_name: "main"
    translation: 
      x: -160.853021651
      y: -61.3771233982
      z: 8.48439825115
    occluded: False
  - 
    marker_name: "left"
    subject_name: "crazyflie"
    segment_name: "main"
    translation: 
      x: -121.564276742
      y: -64.2472282667
      z: 6.95848849563
    occluded: False
---
header: 
  seq: 102780
  stamp: 
    secs: 1529690074
    nsecs: 754352513
  frame_id: ''
frame_number: 268928
markers: 
  - 
    marker_name: "front"
    subject_name: "crazyflie"
    segment_name: "main"
    translation: 
      x: -142.103847422
      y: -134.324553568
      z: 20.1384644376
    occluded: False
  - 
    marker_name: "top"
    subject_name: "crazyflie"
    segment_name: "main"
    translation: 
      x: -164.835205807
      y: -108.050246573
      z: 7.75976792347
    occluded: False
  - 
    marker_name: "bot"
    subject_name: "crazyflie"
    segment_name: "main"
    translation: 
      x: -160.861653658
      y: -61.3462698922
      z: 8.47707016646
    occluded: False
  - 
    marker_name: "left"
    subject_name: "crazyflie"
    segment_name: "main"
    translation: 
      x: -121.659886262
      y: -64.2330678283
      z: 6.89291916304
    occluded: False
---
header: 
  seq: 102781
  stamp: 
    secs: 1529690074
    nsecs: 762560090
  frame_id: ''
frame_number: 268929
markers: 
  - 
    marker_name: "front"
    subject_name: "crazyflie"
    segment_name: "main"
    translation: 
      x: -142.069814322
      y: -134.303767096
      z: 20.1704615579
    occluded: False
  - 
    marker_name: "top"
    subject_name: "crazyflie"
    segment_name: "main"
    translation: 
      x: -164.788411641
      y: -108.102604401
      z: 7.74989328303
    occluded: False
  - 
    marker_name: "bot"
    subject_name: "crazyflie"
    segment_name: "main"
    translation: 
      x: -160.834567814
      y: -61.3664591552
      z: 8.46817036815
    occluded: False
  - 
    marker_name: "left"
    subject_name: "crazyflie"
    segment_name: "main"
    translation: 
      x: -121.617969869
      y: -64.2046283067
      z: 6.85237739538
    occluded: False
---
header: 
  seq: 102782
  stamp: 
    secs: 1529690074
    nsecs: 771073420
  frame_id: ''
frame_number: 268930
markers: 
  - 
    marker_name: "front"
    subject_name: "crazyflie"
    segment_name: "main"
    translation: 
      x: -142.074975598
      y: -134.292597971
      z: 20.2016949184
    occluded: False
  - 
    marker_name: "top"
    subject_name: "crazyflie"
    segment_name: "main"
    translation: 
      x: -164.735553659
      y: -108.136140742
      z: 7.73050008197
    occluded: False
  - 
    marker_name: "bot"
    subject_name: "crazyflie"
    segment_name: "main"
    translation: 
      x: -160.860306432
      y: -61.3445500224
      z: 8.46000116231
    occluded: False
  - 
    marker_name: "left"
    subject_name: "crazyflie"
    segment_name: "main"
    translation: 
      x: -121.519977129
      y: -64.196192171
      z: 6.90600158702
    occluded: False
---
header: 
  seq: 102783
  stamp: 
    secs: 1529690074
    nsecs: 779583457
  frame_id: ''
frame_number: 268931
markers: 
  - 
    marker_name: "front"
    subject_name: "crazyflie"
    segment_name: "main"
    translation: 
      x: -142.058791128
      y: -134.277379154
      z: 20.1787385395
    occluded: False
  - 
    marker_name: "top"
    subject_name: "crazyflie"
    segment_name: "main"
    translation: 
      x: -164.747103609
      y: -108.100344406
      z: 7.71667514536
    occluded: False
  - 
    marker_name: "bot"
    subject_name: "crazyflie"
    segment_name: "main"
    translation: 
      x: -160.813741689
      y: -61.3451313922
      z: 8.47415684096
    occluded: False
  - 
    marker_name: "left"
    subject_name: "crazyflie"
    segment_name: "main"
    translation: 
      x: -121.618030717
      y: -64.2116359616
      z: 6.8351760695
    occluded: False
---
header: 
  seq: 102784
  stamp: 
    secs: 1529690074
    nsecs: 787689265
  frame_id: ''
frame_number: 268932
markers: 
  - 
    marker_name: "front"
    subject_name: "crazyflie"
    segment_name: "main"
    translation: 
      x: -142.104286401
      y: -134.322247995
      z: 20.1604605668
    occluded: False
  - 
    marker_name: "top"
    subject_name: "crazyflie"
    segment_name: "main"
    translation: 
      x: -164.719879099
      y: -108.136290712
      z: 7.72667511239
    occluded: False
  - 
    marker_name: "bot"
    subject_name: "crazyflie"
    segment_name: "main"
    translation: 
      x: -160.875767892
      y: -61.3844358733
      z: 8.49750249633
    occluded: False
  - 
    marker_name: "left"
    subject_name: "crazyflie"
    segment_name: "main"
    translation: 
      x: -121.44471706
      y: -64.1627577935
      z: 6.82838972857
    occluded: False
---
header: 
  seq: 102785
  stamp: 
    secs: 1529690074
    nsecs: 796019614
  frame_id: ''
frame_number: 268933
markers: 
  - 
    marker_name: "front"
    subject_name: "crazyflie"
    segment_name: "main"
    translation: 
      x: -142.182929268
      y: -134.350031933
      z: 20.1131608071
    occluded: False
  - 
    marker_name: "top"
    subject_name: "crazyflie"
    segment_name: "main"
    translation: 
      x: -164.692872492
      y: -108.108795858
      z: 7.68274187726
    occluded: False
  - 
    marker_name: "bot"
    subject_name: "crazyflie"
    segment_name: "main"
    translation: 
      x: -160.850937242
      y: -61.3612749695
      z: 8.4369384466
    occluded: False
  - 
    marker_name: "left"
    subject_name: "crazyflie"
    segment_name: "main"
    translation: 
      x: -121.606088121
      y: -64.2159017921
      z: 6.83750599672
    occluded: False
---
header: 
  seq: 102786
  stamp: 
    secs: 1529690074
    nsecs: 804351003
  frame_id: ''
frame_number: 268934
markers: 
  - 
    marker_name: "front"
    subject_name: "crazyflie"
    segment_name: "main"
    translation: 
      x: -142.226129464
      y: -134.352607
      z: 20.0939578612
    occluded: False
  - 
    marker_name: "top"
    subject_name: "crazyflie"
    segment_name: "main"
    translation: 
      x: -164.742906382
      y: -108.112864145
      z: 7.68313523958
    occluded: False
  - 
    marker_name: "bot"
    subject_name: "crazyflie"
    segment_name: "main"
    translation: 
      x: -160.834482814
      y: -61.3632246687
      z: 8.46504136443
    occluded: False
  - 
    marker_name: "left"
    subject_name: "crazyflie"
    segment_name: "main"
    translation: 
      x: -121.474587627
      y: -64.2706700083
      z: 6.85861940661
    occluded: False
---
header: 
  seq: 102787
  stamp: 
    secs: 1529690074
    nsecs: 812969089
  frame_id: ''
frame_number: 268935
markers: 
  - 
    marker_name: "front"
    subject_name: "crazyflie"
    segment_name: "main"
    translation: 
      x: -142.21468364
      y: -134.340246655
      z: 20.1126384846
    occluded: False
  - 
    marker_name: "top"
    subject_name: "crazyflie"
    segment_name: "main"
    translation: 
      x: -164.793088861
      y: -108.089885665
      z: 7.69130972134
    occluded: False
  - 
    marker_name: "bot"
    subject_name: "crazyflie"
    segment_name: "main"
    translation: 
      x: -160.821852451
      y: -61.361915573
      z: 8.48032036582
    occluded: False
  - 
    marker_name: "left"
    subject_name: "crazyflie"
    segment_name: "main"
    translation: 
      x: -121.449760547
      y: -64.1790109672
      z: 6.88374692544
    occluded: False
---
header: 
  seq: 102788
  stamp: 
    secs: 1529690074
    nsecs: 821009811
  frame_id: ''
frame_number: 268936
markers: 
  - 
    marker_name: "front"
    subject_name: "crazyflie"
    segment_name: "main"
    translation: 
      x: -142.149264338
      y: -134.321686742
      z: 20.1651377882
    occluded: False
  - 
    marker_name: "top"
    subject_name: "crazyflie"
    segment_name: "main"
    translation: 
      x: -164.893752938
      y: -108.03068149
      z: 7.68807831157
    occluded: False
  - 
    marker_name: "bot"
    subject_name: "crazyflie"
    segment_name: "main"
    translation: 
      x: -160.816412752
      y: -61.3617722614
      z: 8.51091012302
    occluded: False
  - 
    marker_name: "left"
    subject_name: "crazyflie"
    segment_name: "main"
    translation: 
      x: -121.49880394
      y: -64.1781005941
      z: 6.9304505251
    occluded: False
---
header: 
  seq: 102789
  stamp: 
    secs: 1529690074
    nsecs: 829351697
  frame_id: ''
frame_number: 268937
markers: 
  - 
    marker_name: "front"
    subject_name: "crazyflie"
    segment_name: "main"
    translation: 
      x: -142.077472171
      y: -134.269847914
      z: 20.1873635003
    occluded: False
  - 
    marker_name: "top"
    subject_name: "crazyflie"
    segment_name: "main"
    translation: 
      x: -164.902331095
      y: -108.015907602
      z: 7.72927269807
    occluded: False
  - 
    marker_name: "bot"
    subject_name: "crazyflie"
    segment_name: "main"
    translation: 
      x: -160.861902042
      y: -61.3534161568
      z: 8.51506703642
    occluded: False
  - 
    marker_name: "left"
    subject_name: "crazyflie"
    segment_name: "main"
    translation: 
      x: -121.526449044
      y: -64.2127695258
      z: 6.93474168898
    occluded: False
---
header: 
  seq: 102790
  stamp: 
    secs: 1529690074
    nsecs: 837677004
  frame_id: ''
frame_number: 268938
markers: 
  - 
    marker_name: "front"
    subject_name: "crazyflie"
    segment_name: "main"
    translation: 
      x: -142.044057657
      y: -134.254577419
      z: 20.1820405647
    occluded: False
  - 
    marker_name: "top"
    subject_name: "crazyflie"
    segment_name: "main"
    translation: 
      x: -164.863789976
      y: -108.059562261
      z: 7.72654151919
    occluded: False
  - 
    marker_name: "bot"
    subject_name: "crazyflie"
    segment_name: "main"
    translation: 
      x: -160.754486713
      y: -61.3333414356
      z: 8.50173464495
    occluded: False
  - 
    marker_name: "left"
    subject_name: "crazyflie"
    segment_name: "main"
    translation: 
      x: -121.542129319
      y: -64.1984916473
      z: 6.93700443624
    occluded: False
---
header: 
  seq: 102791
  stamp: 
    secs: 1529690074
    nsecs: 845966394
  frame_id: ''
frame_number: 268939
markers: 
  - 
    marker_name: "front"
    subject_name: "crazyflie"
    segment_name: "main"
    translation: 
      x: -142.028057296
      y: -134.302771155
      z: 20.1544692888
    occluded: False
  - 
    marker_name: "top"
    subject_name: "crazyflie"
    segment_name: "main"
    translation: 
      x: -164.76943589
      y: -108.085476206
      z: 7.72326005039
    occluded: False
  - 
    marker_name: "bot"
    subject_name: "crazyflie"
    segment_name: "main"
    translation: 
      x: -160.823871932
      y: -61.3757202148
      z: 8.46153087985
    occluded: False
  - 
    marker_name: "left"
    subject_name: "crazyflie"
    segment_name: "main"
    translation: 
      x: -121.629955321
      y: -64.2111340318
      z: 6.84639061716
    occluded: False
---
header: 
  seq: 102792
  stamp: 
    secs: 1529690074
    nsecs: 854341794
  frame_id: ''
frame_number: 268940
markers: 
  - 
    marker_name: "front"
    subject_name: "crazyflie"
    segment_name: "main"
    translation: 
      x: -142.116170652
      y: -134.315164954
      z: 20.1452303576
    occluded: False
  - 
    marker_name: "top"
    subject_name: "crazyflie"
    segment_name: "main"
    translation: 
      x: -164.701554137
      y: -108.120527106
      z: 7.7106688745
    occluded: False
  - 
    marker_name: "bot"
    subject_name: "crazyflie"
    segment_name: "main"
    translation: 
      x: -160.815555066
      y: -61.3748251563
      z: 8.45943776107
    occluded: False
  - 
    marker_name: "left"
    subject_name: "crazyflie"
    segment_name: "main"
    translation: 
      x: -121.606478766
      y: -64.2128173304
      z: 6.82527386552
    occluded: False
---
header: 
  seq: 102793
  stamp: 
    secs: 1529690074
    nsecs: 862736564
  frame_id: ''
frame_number: 268941
markers: 
  - 
    marker_name: "front"
    subject_name: "crazyflie"
    segment_name: "main"
    translation: 
      x: -142.13828667
      y: -134.351656947
      z: 20.1387747445
    occluded: False
  - 
    marker_name: "top"
    subject_name: "crazyflie"
    segment_name: "main"
    translation: 
      x: -164.710501477
      y: -108.111725416
      z: 7.69838273951
    occluded: False
  - 
    marker_name: "bot"
    subject_name: "crazyflie"
    segment_name: "main"
    translation: 
      x: -160.848538985
      y: -61.3745219004
      z: 8.45270261335
    occluded: False
  - 
    marker_name: "left"
    subject_name: "crazyflie"
    segment_name: "main"
    translation: 
      x: -121.593543654
      y: -64.2476234332
      z: 6.81864463474
    occluded: False
---
header: 
  seq: 102794
  stamp: 
    secs: 1529690074
    nsecs: 871089471
  frame_id: ''
frame_number: 268942
markers: 
  - 
    marker_name: "front"
    subject_name: "crazyflie"
    segment_name: "main"
    translation: 
      x: -142.21326411
      y: -134.382987045
      z: 20.1431432575
    occluded: False
  - 
    marker_name: "top"
    subject_name: "crazyflie"
    segment_name: "main"
    translation: 
      x: -164.713600974
      y: -108.149043198
      z: 7.71276504314
    occluded: False
  - 
    marker_name: "bot"
    subject_name: "crazyflie"
    segment_name: "main"
    translation: 
      x: -160.831619188
      y: -61.3637692438
      z: 8.43475246263
    occluded: False
  - 
    marker_name: "left"
    subject_name: "crazyflie"
    segment_name: "main"
    translation: 
      x: -121.625767122
      y: -64.2502558639
      z: 6.82165587946
    occluded: False
---
header: 
  seq: 102795
  stamp: 
    secs: 1529690074
    nsecs: 879391190
  frame_id: ''
frame_number: 268943
markers: 
  - 
    marker_name: "front"
    subject_name: "crazyflie"
    segment_name: "main"
    translation: 
      x: -142.208065604
      y: -134.364475428
      z: 20.1560749918
    occluded: False
  - 
    marker_name: "top"
    subject_name: "crazyflie"
    segment_name: "main"
    translation: 
      x: -164.754539089
      y: -108.089115046
      z: 7.7316414854
    occluded: False
  - 
    marker_name: "bot"
    subject_name: "crazyflie"
    segment_name: "main"
    translation: 
      x: -160.843245343
      y: -61.352395305
      z: 8.46827202635
    occluded: False
  - 
    marker_name: "left"
    subject_name: "crazyflie"
    segment_name: "main"
    translation: 
      x: -121.514740712
      y: -64.1989402707
      z: 6.88664997326
    occluded: False
---
header: 
  seq: 102796
  stamp: 
    secs: 1529690074
    nsecs: 887979208
  frame_id: ''
frame_number: 268944
markers: 
  - 
    marker_name: "front"
    subject_name: "crazyflie"
    segment_name: "main"
    translation: 
      x: -142.117205322
      y: -134.302345062
      z: 20.1760061506
    occluded: False
  - 
    marker_name: "top"
    subject_name: "crazyflie"
    segment_name: "main"
    translation: 
      x: -164.771491545
      y: -108.097078183
      z: 7.7271977312
    occluded: False
  - 
    marker_name: "bot"
    subject_name: "crazyflie"
    segment_name: "main"
    translation: 
      x: -160.802110075
      y: -61.3506183795
      z: 8.48367851497
    occluded: False
  - 
    marker_name: "left"
    subject_name: "crazyflie"
    segment_name: "main"
    translation: 
      x: -121.467226211
      y: -64.19388919
      z: 6.90251972272
    occluded: False
---
header: 
  seq: 102797
  stamp: 
    secs: 1529690074
    nsecs: 896073556
  frame_id: ''
frame_number: 268945
markers: 
  - 
    marker_name: "front"
    subject_name: "crazyflie"
    segment_name: "main"
    translation: 
      x: -142.084156323
      y: -134.297802484
      z: 20.1846122815
    occluded: False
  - 
    marker_name: "top"
    subject_name: "crazyflie"
    segment_name: "main"
    translation: 
      x: -164.810373303
      y: -108.079296411
      z: 7.73547830606
    occluded: False
  - 
    marker_name: "bot"
    subject_name: "crazyflie"
    segment_name: "main"
    translation: 
      x: -160.808571872
      y: -61.3590693532
      z: 8.48127922584
    occluded: False
  - 
    marker_name: "left"
    subject_name: "crazyflie"
    segment_name: "main"
    translation: 
      x: -121.560026853
      y: -64.2210807476
      z: 6.92733084228
    occluded: False
---
header: 
  seq: 102798
  stamp: 
    secs: 1529690074
    nsecs: 904347867
  frame_id: ''
frame_number: 268946
markers: 
  - 
    marker_name: "front"
    subject_name: "crazyflie"
    segment_name: "main"
    translation: 
      x: -142.115406979
      y: -134.343728694
      z: 20.2222319102
    occluded: False
  - 
    marker_name: "top"
    subject_name: "crazyflie"
    segment_name: "main"
    translation: 
      x: -164.783984454
      y: -108.076468699
      z: 7.75409274324
    occluded: False
  - 
    marker_name: "bot"
    subject_name: "crazyflie"
    segment_name: "main"
    translation: 
      x: -160.853323964
      y: -61.3650486374
      z: 8.48997399962
    occluded: False
  - 
    marker_name: "left"
    subject_name: "crazyflie"
    segment_name: "main"
    translation: 
      x: -121.532775214
      y: -64.2135536219
      z: 6.94345756625
    occluded: False
---
header: 
  seq: 102799
  stamp: 
    secs: 1529690074
    nsecs: 912957810
  frame_id: ''
frame_number: 268947
markers: 
  - 
    marker_name: "front"
    subject_name: "crazyflie"
    segment_name: "main"
    translation: 
      x: -142.173092171
      y: -134.359632245
      z: 20.1892092316
    occluded: False
  - 
    marker_name: "top"
    subject_name: "crazyflie"
    segment_name: "main"
    translation: 
      x: -164.790319445
      y: -108.069274997
      z: 7.7142371738
    occluded: False
  - 
    marker_name: "bot"
    subject_name: "crazyflie"
    segment_name: "main"
    translation: 
      x: -160.830870862
      y: -61.3567648929
      z: 8.49058243006
    occluded: False
  - 
    marker_name: "left"
    subject_name: "crazyflie"
    segment_name: "main"
    translation: 
      x: -121.503193979
      y: -64.1917935991
      z: 6.9099787215
    occluded: False
---
header: 
  seq: 102800
  stamp: 
    secs: 1529690074
    nsecs: 921093059
  frame_id: ''
frame_number: 268948
markers: 
  - 
    marker_name: "front"
    subject_name: "crazyflie"
    segment_name: "main"
    translation: 
      x: -142.226060104
      y: -134.372577337
      z: 20.1857044007
    occluded: False
  - 
    marker_name: "top"
    subject_name: "crazyflie"
    segment_name: "main"
    translation: 
      x: -164.796436515
      y: -108.07914894
      z: 7.70693793621
    occluded: False
  - 
    marker_name: "bot"
    subject_name: "crazyflie"
    segment_name: "main"
    translation: 
      x: -160.863991375
      y: -61.363778151
      z: 8.48168737891
    occluded: False
  - 
    marker_name: "left"
    subject_name: "crazyflie"
    segment_name: "main"
    translation: 
      x: -121.505481078
      y: -64.2476493972
      z: 6.91449517927
    occluded: False
---
header: 
  seq: 102801
  stamp: 
    secs: 1529690074
    nsecs: 929413968
  frame_id: ''
frame_number: 268949
markers: 
  - 
    marker_name: "front"
    subject_name: "crazyflie"
    segment_name: "main"
    translation: 
      x: -142.214924118
      y: -134.339353547
      z: 20.1164593681
    occluded: False
  - 
    marker_name: "top"
    subject_name: "crazyflie"
    segment_name: "main"
    translation: 
      x: -164.775050877
      y: -108.093372494
      z: 7.67543468001
    occluded: False
  - 
    marker_name: "bot"
    subject_name: "crazyflie"
    segment_name: "main"
    translation: 
      x: -160.814483761
      y: -61.3543501187
      z: 8.46652545708
    occluded: False
  - 
    marker_name: "left"
    subject_name: "crazyflie"
    segment_name: "main"
    translation: 
      x: -121.480371822
      y: -64.2161076754
      z: 6.87376715364
    occluded: False
---
header: 
  seq: 102802
  stamp: 
    secs: 1529690074
    nsecs: 937708456
  frame_id: ''
frame_number: 268950
markers: 
  - 
    marker_name: "front"
    subject_name: "crazyflie"
    segment_name: "main"
    translation: 
      x: -142.117625348
      y: -134.318564607
      z: 20.1418267038
    occluded: False
  - 
    marker_name: "top"
    subject_name: "crazyflie"
    segment_name: "main"
    translation: 
      x: -164.714639266
      y: -108.129526288
      z: 7.67325627276
    occluded: False
  - 
    marker_name: "bot"
    subject_name: "crazyflie"
    segment_name: "main"
    translation: 
      x: -160.823688196
      y: -61.3704090788
      z: 8.44486151376
    occluded: False
  - 
    marker_name: "left"
    subject_name: "crazyflie"
    segment_name: "main"
    translation: 
      x: -121.481758242
      y: -64.2026698297
      z: 6.86580720698
    occluded: False
---
header: 
  seq: 102803
  stamp: 
    secs: 1529690074
    nsecs: 945985661
  frame_id: ''
frame_number: 268951
markers: 
  - 
    marker_name: "front"
    subject_name: "crazyflie"
    segment_name: "main"
    translation: 
      x: -142.07337788
      y: -134.297878936
      z: 20.1532635092
    occluded: False
  - 
    marker_name: "top"
    subject_name: "crazyflie"
    segment_name: "main"
    translation: 
      x: -164.717703336
      y: -108.115515288
      z: 7.70576207823
    occluded: False
  - 
    marker_name: "bot"
    subject_name: "crazyflie"
    segment_name: "main"
    translation: 
      x: -160.896533153
      y: -61.381291498
      z: 8.41125224737
    occluded: False
  - 
    marker_name: "left"
    subject_name: "crazyflie"
    segment_name: "main"
    translation: 
      x: -121.615637093
      y: -64.2176527974
      z: 6.80276700934
    occluded: False
---
header: 
  seq: 102804
  stamp: 
    secs: 1529690074
    nsecs: 954371109
  frame_id: ''
frame_number: 268952
markers: 
  - 
    marker_name: "front"
    subject_name: "crazyflie"
    segment_name: "main"
    translation: 
      x: -141.995276462
      y: -134.277183085
      z: 20.1755171679
    occluded: False
  - 
    marker_name: "top"
    subject_name: "crazyflie"
    segment_name: "main"
    translation: 
      x: -164.691125133
      y: -108.105551257
      z: 7.69974699847
    occluded: False
  - 
    marker_name: "bot"
    subject_name: "crazyflie"
    segment_name: "main"
    translation: 
      x: -160.810819378
      y: -61.3681975133
      z: 8.4597257552
    occluded: False
  - 
    marker_name: "left"
    subject_name: "crazyflie"
    segment_name: "main"
    translation: 
      x: -121.43468675
      y: -64.1429586902
      z: 6.85923491745
    occluded: False
---
header: 
  seq: 102805
  stamp: 
    secs: 1529690074
    nsecs: 962760777
  frame_id: ''
frame_number: 268953
markers: 
  - 
    marker_name: "front"
    subject_name: "crazyflie"
    segment_name: "main"
    translation: 
      x: -142.049237423
      y: -134.301586418
      z: 20.1925906066
    occluded: False
  - 
    marker_name: "top"
    subject_name: "crazyflie"
    segment_name: "main"
    translation: 
      x: -164.693015886
      y: -108.130374866
      z: 7.73336095956
    occluded: False
  - 
    marker_name: "bot"
    subject_name: "crazyflie"
    segment_name: "main"
    translation: 
      x: -160.877378443
      y: -61.3828698249
      z: 8.47045193967
    occluded: False
  - 
    marker_name: "left"
    subject_name: "crazyflie"
    segment_name: "main"
    translation: 
      x: -121.616299924
      y: -64.2024276292
      z: 6.84596840865
    occluded: False
---
header: 
  seq: 102806
  stamp: 
